  z: 8.72801985741
linear_acceleration_covariance: [0.0, 0.0, 0.0, 0.0, 0.0, 0.0, 0.0, 0.0, 0.0]
---
header: 
  seq: 17727
  stamp: 
    secs: 1668162630
    nsecs: 700718152
  frame_id: "imu_link"
orientation: 
  x: 0.000299264793284
  y: -0.00572416884825
  z: 0.904075026512
  w: 0.427335441113
orientation_covariance: [0.0, 0.0, 0.0, 0.0, 0.0, 0.0, 0.0, 0.0, 0.0]
angular_velocity: 
  x: 0.0583383162442
  y: 0.0107024959423
  z: 0.336753841611
angular_velocity_covariance: [0.0, 0.0, 0.0, 0.0, 0.0, 0.0, 0.0, 0.0, 0.0]
linear_acceleration: 
  x: 0.699117709696
  y: -0.540070480108
  z: 8.72801985741
linear_acceleration_covariance: [0.0, 0.0, 0.0, 0.0, 0.0, 0.0, 0.0, 0.0, 0.0]
---
header: 
  seq: 17728
  stamp: 
    secs: 1668162630
    nsecs: 704685768
  frame_id: "imu_link"
orientation: 
  x: 0.000246897456236
  y: -0.00561497779563
  z: 0.9047960639
  w: 0.425808191299
orientation_covariance: [0.0, 0.0, 0.0, 0.0, 0.0, 0.0, 0.0, 0.0, 0.0]
angular_velocity: 
  x: 0.00705522765613
  y: 0.0194029337765
  z: 0.335701626816
angular_velocity_covariance: [0.0, 0.0, 0.0, 0.0, 0.0, 0.0, 0.0, 0.0, 0.0]
linear_acceleration: 
  x: -0.196004522592
  y: 0.0595529200509
  z: 9.78432674408
linear_acceleration_covariance: [0.0, 0.0, 0.0, 0.0, 0.0, 0.0, 0.0, 0.0, 0.0]
---
header: 
  seq: 17729
  stamp: 
    secs: 1668162630
    nsecs: 710669864
  frame_id: "imu_link"
orientation: 
  x: 0.000246897456236
  y: -0.00561497779563
  z: 0.9047960639
  w: 0.425808191299
orientation_covariance: [0.0, 0.0, 0.0, 0.0, 0.0, 0.0, 0.0, 0.0, 0.0]
angular_velocity: 
  x: 0.00705522765613
  y: 0.0194029337765
  z: 0.335701626816
angular_velocity_covariance: [0.0, 0.0, 0.0, 0.0, 0.0, 0.0, 0.0, 0.0, 0.0]
linear_acceleration: 
  x: -0.196004522592
  y: 0.0595529200509
  z: 9.78432674408
linear_acceleration_covariance: [0.0, 0.0, 0.0, 0.0, 0.0, 0.0, 0.0, 0.0, 0.0]
---
header: 
  seq: 17730
  stamp: 
    secs: 1668162630
    nsecs: 714663816
  frame_id: "imu_link"
orientation: 
  x: 0.000237761661992
  y: -0.00551066314802
  z: 0.905491292477
  w: 0.424329131842
orientation_covariance: [0.0, 0.0, 0.0, 0.0, 0.0, 0.0, 0.0, 0.0, 0.0]
angular_velocity: 
  x: 0.0284029730289
  y: 0.00412983274596
  z: 0.317426818317
angular_velocity_covariance: [0.0, 0.0, 0.0, 0.0, 0.0, 0.0, 0.0, 0.0, 0.0]
linear_acceleration: 
  x: -0.151355501264
  y: 0.0838280905038
  z: 8.97436019182
linear_acceleration_covariance: [0.0, 0.0, 0.0, 0.0, 0.0, 0.0, 0.0, 0.0, 0.0]
---
header: 
  seq: 17731
  stamp: 
    secs: 1668162630
    nsecs: 720735464
  frame_id: "imu_link"
orientation: 
  x: 0.000237761661992
  y: -0.00551066314802
  z: 0.905491292477
  w: 0.424329131842
orientation_covariance: [0.0, 0.0, 0.0, 0.0, 0.0, 0.0, 0.0, 0.0, 0.0]
angular_velocity: 
  x: 0.0284029730289
  y: 0.00412983274596
  z: 0.317426818317
angular_velocity_covariance: [0.0, 0.0, 0.0, 0.0, 0.0, 0.0, 0.0, 0.0, 0.0]
linear_acceleration: 
  x: -0.151355501264
  y: 0.0838280905038
  z: 8.97436019182
linear_acceleration_covariance: [0.0, 0.0, 0.0, 0.0, 0.0, 0.0, 0.0, 0.0, 0.0]
---
header: 
  seq: 17732
  stamp: 
    secs: 1668162630
    nsecs: 724741448
  frame_id: "imu_link"
orientation: 
  x: 0.000251319230301
  y: -0.00541348196566
  z: 0.906103909016
  w: 0.423020750284
orientation_covariance: [0.0, 0.0, 0.0, 0.0, 0.0, 0.0, 0.0, 0.0, 0.0]
angular_velocity: 
  x: -0.000234048231067
  y: 0.00701226286367
  z: 0.271541374953
angular_velocity_covariance: [0.0, 0.0, 0.0, 0.0, 0.0, 0.0, 0.0, 0.0, 0.0]
linear_acceleration: 
  x: -0.12888132669
  y: 0.0398305471055
  z: 9.84104299545
linear_acceleration_covariance: [0.0, 0.0, 0.0, 0.0, 0.0, 0.0, 0.0, 0.0, 0.0]
---
header: 
  seq: 17733
  stamp: 
    secs: 1668162630
    nsecs: 730737736
  frame_id: "imu_link"
orientation: 
  x: 0.000251319230301
  y: -0.00541348196566
  z: 0.906103909016
  w: 0.423020750284
orientation_covariance: [0.0, 0.0, 0.0, 0.0, 0.0, 0.0, 0.0, 0.0, 0.0]
angular_velocity: 
  x: -0.000234048231067
  y: 0.00701226286367
  z: 0.271541374953
angular_velocity_covariance: [0.0, 0.0, 0.0, 0.0, 0.0, 0.0, 0.0, 0.0, 0.0]
linear_acceleration: 
  x: -0.12888132669
  y: 0.0398305471055
  z: 9.84104299545
linear_acceleration_covariance: [0.0, 0.0, 0.0, 0.0, 0.0, 0.0, 0.0, 0.0, 0.0]
---
header: 
  seq: 17734
  stamp: 
    secs: 1668162630
    nsecs: 734673096
  frame_id: "imu_link"
orientation: 
  x: 0.000302655767882
  y: -0.00533744273707
  z: 0.906620383263
  w: 0.421913385391
orientation_covariance: [0.0, 0.0, 0.0, 0.0, 0.0, 0.0, 0.0, 0.0, 0.0]
angular_velocity: 
  x: 0.0177966692029
  y: -0.00995930973851
  z: 0.22693106958
angular_velocity_covariance: [0.0, 0.0, 0.0, 0.0, 0.0, 0.0, 0.0, 0.0, 0.0]
linear_acceleration: 
  x: -0.0717765223235
  y: -0.147020724043
  z: 10.5446654081
linear_acceleration_covariance: [0.0, 0.0, 0.0, 0.0, 0.0, 0.0, 0.0, 0.0, 0.0]
---
header: 
  seq: 17735
  stamp: 
    secs: 1668162630
    nsecs: 740672232
  frame_id: "imu_link"
orientation: 
  x: 0.000302655767882
  y: -0.00533744273707
  z: 0.906620383263
  w: 0.421913385391
orientation_covariance: [0.0, 0.0, 0.0, 0.0, 0.0, 0.0, 0.0, 0.0, 0.0]
angular_velocity: 
  x: 0.0177966692029
  y: -0.00995930973851
  z: 0.22693106958
angular_velocity_covariance: [0.0, 0.0, 0.0, 0.0, 0.0, 0.0, 0.0, 0.0, 0.0]
linear_acceleration: 
  x: -0.0717765223235
  y: -0.147020724043
  z: 10.5446654081
linear_acceleration_covariance: [0.0, 0.0, 0.0, 0.0, 0.0, 0.0, 0.0, 0.0, 0.0]
---
header: 
  seq: 17736
  stamp: 
    secs: 1668162630
    nsecs: 744681512
  frame_id: "imu_link"
orientation: 
  x: 0.000343442545272
  y: -0.00544566754252
  z: 0.907016158104
  w: 0.421060621738
orientation_covariance: [0.0, 0.0, 0.0, 0.0, 0.0, 0.0, 0.0, 0.0, 0.0]
angular_velocity: 
  x: -0.0122701467663
  y: -0.012054615922
  z: 0.167188102511
angular_velocity_covariance: [0.0, 0.0, 0.0, 0.0, 0.0, 0.0, 0.0, 0.0, 0.0]
linear_acceleration: 
  x: 0.294145513698
  y: 0.156750886142
  z: 9.37283601761
linear_acceleration_covariance: [0.0, 0.0, 0.0, 0.0, 0.0, 0.0, 0.0, 0.0, 0.0]
---
header: 
  seq: 17737
  stamp: 
    secs: 1668162630
    nsecs: 750790120
  frame_id: "imu_link"
orientation: 
  x: 0.000343442545272
  y: -0.00544566754252
  z: 0.907016158104
  w: 0.421060621738
orientation_covariance: [0.0, 0.0, 0.0, 0.0, 0.0, 0.0, 0.0, 0.0, 0.0]
angular_velocity: 
  x: -0.0122701467663
  y: -0.012054615922
  z: 0.167188102511
angular_velocity_covariance: [0.0, 0.0, 0.0, 0.0, 0.0, 0.0, 0.0, 0.0, 0.0]
linear_acceleration: 
  x: 0.294145513698
  y: 0.156750886142
  z: 9.37283601761
linear_acceleration_covariance: [0.0, 0.0, 0.0, 0.0, 0.0, 0.0, 0.0, 0.0, 0.0]
---
header: 
  seq: 17738
  stamp: 
    secs: 1668162630
    nsecs: 754694792
  frame_id: "imu_link"
orientation: 
  x: 0.000424273108365
  y: -0.00548119330779
  z: 0.907305121422
  w: 0.420436918736
orientation_covariance: [0.0, 0.0, 0.0, 0.0, 0.0, 0.0, 0.0, 0.0, 0.0]
angular_velocity: 
  x: -0.0116554414218
  y: -0.00994104003996
  z: 0.119039413633
angular_velocity_covariance: [0.0, 0.0, 0.0, 0.0, 0.0, 0.0, 0.0, 0.0, 0.0]
linear_acceleration: 
  x: -0.103433259577
  y: -0.221973611414
  z: 10.2870789051
linear_acceleration_covariance: [0.0, 0.0, 0.0, 0.0, 0.0, 0.0, 0.0, 0.0, 0.0]
---
header: 
  seq: 17739
  stamp: 
    secs: 1668162630
    nsecs: 760672808
  frame_id: "imu_link"
orientation: 
  x: 0.000424273108365
  y: -0.00548119330779
  z: 0.907305121422
  w: 0.420436918736
orientation_covariance: [0.0, 0.0, 0.0, 0.0, 0.0, 0.0, 0.0, 0.0, 0.0]
angular_velocity: 
  x: -0.0116554414218
  y: -0.00994104003996
  z: 0.119039413633
angular_velocity_covariance: [0.0, 0.0, 0.0, 0.0, 0.0, 0.0, 0.0, 0.0, 0.0]
linear_acceleration: 
  x: -0.103433259577
  y: -0.221973611414
  z: 10.2870789051
linear_acceleration_covariance: [0.0, 0.0, 0.0, 0.0, 0.0, 0.0, 0.0, 0.0, 0.0]
---
header: 
  seq: 17740
  stamp: 
    secs: 1668162630
    nsecs: 764684008
  frame_id: "imu_link"
orientation: 
  x: 0.000488836201839
  y: -0.00557102123275
  z: 0.907497882843
  w: 0.420019447803
orientation_covariance: [0.0, 0.0, 0.0, 0.0, 0.0, 0.0, 0.0, 0.0, 0.0]
angular_velocity: 
  x: 0.00973269764901
  y: -0.00883877342838
  z: 0.0777101472164
angular_velocity_covariance: [0.0, 0.0, 0.0, 0.0, 0.0, 0.0, 0.0, 0.0, 0.0]
linear_acceleration: 
  x: -0.071351479739
  y: -0.489574435353
  z: 10.1422905445
linear_acceleration_covariance: [0.0, 0.0, 0.0, 0.0, 0.0, 0.0, 0.0, 0.0, 0.0]
---
header: 
  seq: 17741
  stamp: 
    secs: 1668162630
    nsecs: 770655720
  frame_id: "imu_link"
orientation: 
  x: 0.000488836201839
  y: -0.00557102123275
  z: 0.907497882843
  w: 0.420019447803
orientation_covariance: [0.0, 0.0, 0.0, 0.0, 0.0, 0.0, 0.0, 0.0, 0.0]
angular_velocity: 
  x: 0.00973269764901
  y: -0.00883877342838
  z: 0.0777101472164
angular_velocity_covariance: [0.0, 0.0, 0.0, 0.0, 0.0, 0.0, 0.0, 0.0, 0.0]
linear_acceleration: 
  x: -0.071351479739
  y: -0.489574435353
  z: 10.1422905445
linear_acceleration_covariance: [0.0, 0.0, 0.0, 0.0, 0.0, 0.0, 0.0, 0.0, 0.0]
---
header: 
  seq: 17742
  stamp: 
    secs: 1668162630
    nsecs: 774687400
  frame_id: "imu_link"
orientation: 
  x: 0.0005867187283
  y: -0.00564171886072
  z: 0.907609879971
  w: 0.419776409864
orientation_covariance: [0.0, 0.0, 0.0, 0.0, 0.0, 0.0, 0.0, 0.0, 0.0]
angular_velocity: 
  x: 0.0200259823042
  y: 0.000604766280518
  z: 0.0388725173108
angular_velocity_covariance: [0.0, 0.0, 0.0, 0.0, 0.0, 0.0, 0.0, 0.0, 0.0]
linear_acceleration: 
  x: 1.12256541252
  y: -0.101492466033
  z: 8.92884045839
linear_acceleration_covariance: [0.0, 0.0, 0.0, 0.0, 0.0, 0.0, 0.0, 0.0, 0.0]
---
header: 
  seq: 17743
  stamp: 
    secs: 1668162630
    nsecs: 780766728
  frame_id: "imu_link"
orientation: 
  x: 0.0005867187283
  y: -0.00564171886072
  z: 0.907609879971
  w: 0.419776409864
orientation_covariance: [0.0, 0.0, 0.0, 0.0, 0.0, 0.0, 0.0, 0.0, 0.0]
angular_velocity: 
  x: 0.0200259823042
  y: 0.000604766280518
  z: 0.0388725173108
angular_velocity_covariance: [0.0, 0.0, 0.0, 0.0, 0.0, 0.0, 0.0, 0.0, 0.0]
linear_acceleration: 
  x: 1.12256541252
  y: -0.101492466033
  z: 8.92884045839
linear_acceleration_covariance: [0.0, 0.0, 0.0, 0.0, 0.0, 0.0, 0.0, 0.0, 0.0]
---
header: 
  seq: 17744
  stamp: 
    secs: 1668162630
    nsecs: 784720392
  frame_id: "imu_link"
orientation: 
  x: 0.000624735374004
  y: -0.00570498686284
  z: 0.907643437386
  w: 0.419702887535
orientation_covariance: [0.0, 0.0, 0.0, 0.0, 0.0, 0.0, 0.0, 0.0, 0.0]
angular_velocity: 
  x: -0.0152505429671
  y: -0.000510989279043
  z: 0.00390252963907
angular_velocity_covariance: [0.0, 0.0, 0.0, 0.0, 0.0, 0.0, 0.0, 0.0, 0.0]
linear_acceleration: 
  x: 0.128061743826
  y: -0.358598525822
  z: 9.07498457432
linear_acceleration_covariance: [0.0, 0.0, 0.0, 0.0, 0.0, 0.0, 0.0, 0.0, 0.0]
---
header: 
  seq: 17745
  stamp: 
    secs: 1668162630
    nsecs: 790690120
  frame_id: "imu_link"
orientation: 
  x: 0.000624735374004
  y: -0.00570498686284
  z: 0.907643437386
  w: 0.419702887535
orientation_covariance: [0.0, 0.0, 0.0, 0.0, 0.0, 0.0, 0.0, 0.0, 0.0]
angular_velocity: 
  x: -0.0152505429671
  y: -0.000510989279043
  z: 0.00390252963907
angular_velocity_covariance: [0.0, 0.0, 0.0, 0.0, 0.0, 0.0, 0.0, 0.0, 0.0]
linear_acceleration: 
  x: 0.128061743826
  y: -0.358598525822
  z: 9.07498457432
linear_acceleration_covariance: [0.0, 0.0, 0.0, 0.0, 0.0, 0.0, 0.0, 0.0, 0.0]
---
header: 
  seq: 17746
  stamp: 
    secs: 1668162630
    nsecs: 794680072
  frame_id: "imu_link"
orientation: 
  x: 0.000615318655036
  y: -0.00562954321504
  z: 0.907608807087
  w: 0.419778883457
orientation_covariance: [0.0, 0.0, 0.0, 0.0, 0.0, 0.0, 0.0, 0.0, 0.0]
angular_velocity: 
  x: 0.0054259865595
  y: 0.00695020809833
  z: -0.0294052743664
angular_velocity_covariance: [0.0, 0.0, 0.0, 0.0, 0.0, 0.0, 0.0, 0.0, 0.0]
linear_acceleration: 
  x: -0.425691986084
  y: -0.168010453135
  z: 10.9750327349
linear_acceleration_covariance: [0.0, 0.0, 0.0, 0.0, 0.0, 0.0, 0.0, 0.0, 0.0]
---
header: 
  seq: 17747
  stamp: 
    secs: 1668162630
    nsecs: 800659272
  frame_id: "imu_link"
orientation: 
  x: 0.000615318655036
  y: -0.00562954321504
  z: 0.907608807087
  w: 0.419778883457
orientation_covariance: [0.0, 0.0, 0.0, 0.0, 0.0, 0.0, 0.0, 0.0, 0.0]
angular_velocity: 
  x: 0.0054259865595
  y: 0.00695020809833
  z: -0.0294052743664
angular_velocity_covariance: [0.0, 0.0, 0.0, 0.0, 0.0, 0.0, 0.0, 0.0, 0.0]
linear_acceleration: 
  x: -0.425691986084
  y: -0.168010453135
  z: 10.9750327349
linear_acceleration_covariance: [0.0, 0.0, 0.0, 0.0, 0.0, 0.0, 0.0, 0.0, 0.0]
---
header: 
  seq: 17748
  stamp: 
    secs: 1668162630
    nsecs: 804899144
  frame_id: "imu_link"
orientation: 
  x: 0.000543094996829
  y: -0.00575206195936
  z: 0.907516419888
  w: 0.419977068901
orientation_covariance: [0.0, 0.0, 0.0, 0.0, 0.0, 0.0, 0.0, 0.0, 0.0]
angular_velocity: 
  x: -0.0109589593586
  y: -0.00240710872685
  z: -0.0477442879245
angular_velocity_covariance: [0.0, 0.0, 0.0, 0.0, 0.0, 0.0, 0.0, 0.0, 0.0]
linear_acceleration: 
  x: -0.347952838242
  y: -1.08679561019
  z: 9.20606292486
linear_acceleration_covariance: [0.0, 0.0, 0.0, 0.0, 0.0, 0.0, 0.0, 0.0, 0.0]
---
header: 
  seq: 17749
  stamp: 
    secs: 1668162630
    nsecs: 810660872
  frame_id: "imu_link"
orientation: 
  x: 0.000543094996829
  y: -0.00575206195936
  z: 0.907516419888
  w: 0.419977068901
orientation_covariance: [0.0, 0.0, 0.0, 0.0, 0.0, 0.0, 0.0, 0.0, 0.0]
angular_velocity: 
  x: -0.0109589593586
  y: -0.00240710872685
  z: -0.0477442879245
angular_velocity_covariance: [0.0, 0.0, 0.0, 0.0, 0.0, 0.0, 0.0, 0.0, 0.0]
linear_acceleration: 
  x: -0.347952838242
  y: -1.08679561019
  z: 9.20606292486
linear_acceleration_covariance: [0.0, 0.0, 0.0, 0.0, 0.0, 0.0, 0.0, 0.0, 0.0]
---
header: 
  seq: 17750
  stamp: 
    secs: 1668162630
    nsecs: 814704840
  frame_id: "imu_link"
orientation: 
  x: 0.000489295169245
  y: -0.00596448779106
  z: 0.907432019711
  w: 0.42015632987
orientation_covariance: [0.0, 0.0, 0.0, 0.0, 0.0, 0.0, 0.0, 0.0, 0.0]
angular_velocity: 
  x: -0.0186261334912
  y: -0.00455803647813
  z: -0.0317584348434
angular_velocity_covariance: [0.0, 0.0, 0.0, 0.0, 0.0, 0.0, 0.0, 0.0, 0.0]
linear_acceleration: 
  x: 0.54984793812
  y: -0.0854519959539
  z: 9.65589039326
linear_acceleration_covariance: [0.0, 0.0, 0.0, 0.0, 0.0, 0.0, 0.0, 0.0, 0.0]
---
header: 
  seq: 17751
  stamp: 
    secs: 1668162630
    nsecs: 820669896
  frame_id: "imu_link"
orientation: 
  x: 0.000489295169245
  y: -0.00596448779106
  z: 0.907432019711
  w: 0.42015632987
orientation_covariance: [0.0, 0.0, 0.0, 0.0, 0.0, 0.0, 0.0, 0.0, 0.0]
angular_velocity: 
  x: -0.0186261334912
  y: -0.00455803647813
  z: -0.0317584348434
angular_velocity_covariance: [0.0, 0.0, 0.0, 0.0, 0.0, 0.0, 0.0, 0.0, 0.0]
linear_acceleration: 
  x: 0.54984793812
  y: -0.0854519959539
  z: 9.65589039326
linear_acceleration_covariance: [0.0, 0.0, 0.0, 0.0, 0.0, 0.0, 0.0, 0.0, 0.0]
---
header: 
  seq: 17752
  stamp: 
    secs: 1668162630
    nsecs: 824697000
  frame_id: "imu_link"
orientation: 
  x: 0.000352252973244
  y: -0.00620853807777
  z: 0.907413184643
  w: 0.420193582773
orientation_covariance: [0.0, 0.0, 0.0, 0.0, 0.0, 0.0, 0.0, 0.0, 0.0]
angular_velocity: 
  x: -0.0466808337594
  y: -0.00585362098905
  z: 0.00640663359164
angular_velocity_covariance: [0.0, 0.0, 0.0, 0.0, 0.0, 0.0, 0.0, 0.0, 0.0]
linear_acceleration: 
  x: -0.0642377436161
  y: 0.0333870721981
  z: 9.32615913153
linear_acceleration_covariance: [0.0, 0.0, 0.0, 0.0, 0.0, 0.0, 0.0, 0.0, 0.0]
---
header: 
  seq: 17753
  stamp: 
    secs: 1668162630
    nsecs: 830660584
  frame_id: "imu_link"
orientation: 
  x: 0.000352252973244
  y: -0.00620853807777
  z: 0.907413184643
  w: 0.420193582773
orientation_covariance: [0.0, 0.0, 0.0, 0.0, 0.0, 0.0, 0.0, 0.0, 0.0]
angular_velocity: 
  x: -0.0466808337594
  y: -0.00585362098905
  z: 0.00640663359164
angular_velocity_covariance: [0.0, 0.0, 0.0, 0.0, 0.0, 0.0, 0.0, 0.0, 0.0]
linear_acceleration: 
  x: -0.0642377436161
  y: 0.0333870721981
  z: 9.32615913153
linear_acceleration_covariance: [0.0, 0.0, 0.0, 0.0, 0.0, 0.0, 0.0, 0.0, 0.0]
---
header: 
  seq: 17754
  stamp: 
    secs: 1668162630
    nsecs: 834664808
  frame_id: "imu_link"
orientation: 
  x: 0.000429566804087
  y: -0.00601779855788
  z: 0.907480299473
  w: 0.420051276684
orientation_covariance: [0.0, 0.0, 0.0, 0.0, 0.0, 0.0, 0.0, 0.0, 0.0]
angular_velocity: 
  x: 0.0437894651485
  y: 0.0070275651146
  z: 0.0459871261686
angular_velocity_covariance: [0.0, 0.0, 0.0, 0.0, 0.0, 0.0, 0.0, 0.0, 0.0]
linear_acceleration: 
  x: 0.0817955709994
  y: 0.263826423883
  z: 10.6989866972
linear_acceleration_covariance: [0.0, 0.0, 0.0, 0.0, 0.0, 0.0, 0.0, 0.0, 0.0]
---
header: 
  seq: 17755
  stamp: 
    secs: 1668162630
    nsecs: 840663272
  frame_id: "imu_link"
orientation: 
  x: 0.000429566804087
  y: -0.00601779855788
  z: 0.907480299473
  w: 0.420051276684
orientation_covariance: [0.0, 0.0, 0.0, 0.0, 0.0, 0.0, 0.0, 0.0, 0.0]
angular_velocity: 
  x: 0.0437894651485
  y: 0.0070275651146
  z: 0.0459871261686
angular_velocity_covariance: [0.0, 0.0, 0.0, 0.0, 0.0, 0.0, 0.0, 0.0, 0.0]
linear_acceleration: 
  x: 0.0817955709994
  y: 0.263826423883
  z: 10.6989866972
linear_acceleration_covariance: [0.0, 0.0, 0.0, 0.0, 0.0, 0.0, 0.0, 0.0, 0.0]
---
header: 
  seq: 17756
  stamp: 
    secs: 1668162630
    nsecs: 844670184
  frame_id: "imu_link"
orientation: 
  x: 0.000429372885264
  y: -0.00583703583106
  z: 0.907605111599
  w: 0.419784009457
orientation_covariance: [0.0, 0.0, 0.0, 0.0, 0.0, 0.0, 0.0, 0.0, 0.0]
angular_velocity: 
  x: 0.0465415712604
  y: 0.0101191285092
  z: 0.0616904324631
angular_velocity_covariance: [0.0, 0.0, 0.0, 0.0, 0.0, 0.0, 0.0, 0.0, 0.0]
linear_acceleration: 
  x: 0.456017117947
  y: -0.0981657525524
  z: 10.180322957
linear_acceleration_covariance: [0.0, 0.0, 0.0, 0.0, 0.0, 0.0, 0.0, 0.0, 0.0]
---
header: 
  seq: 17757
  stamp: 
    secs: 1668162630
    nsecs: 850716840
  frame_id: "imu_link"
orientation: 
  x: 0.000429372885264
  y: -0.00583703583106
  z: 0.907605111599
  w: 0.419784009457
orientation_covariance: [0.0, 0.0, 0.0, 0.0, 0.0, 0.0, 0.0, 0.0, 0.0]
angular_velocity: 
  x: 0.0465415712604
  y: 0.0101191285092
  z: 0.0616904324631
angular_velocity_covariance: [0.0, 0.0, 0.0, 0.0, 0.0, 0.0, 0.0, 0.0, 0.0]
linear_acceleration: 
  x: 0.456017117947
  y: -0.0981657525524
  z: 10.180322957
linear_acceleration_covariance: [0.0, 0.0, 0.0, 0.0, 0.0, 0.0, 0.0, 0.0, 0.0]
---
header: 
  seq: 17758
  stamp: 
    secs: 1668162630
    nsecs: 854678216
  frame_id: "imu_link"
orientation: 
  x: 0.000604341097642
  y: -0.00559710757807
  z: 0.907725393772
  w: 0.419527024031
orientation_covariance: [0.0, 0.0, 0.0, 0.0, 0.0, 0.0, 0.0, 0.0, 0.0]
angular_velocity: 
  x: 0.0485556323171
  y: 0.00136089514626
  z: 0.0517870033263
angular_velocity_covariance: [0.0, 0.0, 0.0, 0.0, 0.0, 0.0, 0.0, 0.0, 0.0]
linear_acceleration: 
  x: 0.475870996714
  y: 1.06173677146
  z: 7.22432889938
linear_acceleration_covariance: [0.0, 0.0, 0.0, 0.0, 0.0, 0.0, 0.0, 0.0, 0.0]
---
header: 
  seq: 17759
  stamp: 
    secs: 1668162630
    nsecs: 860675752
  frame_id: "imu_link"
orientation: 
  x: 0.000604341097642
  y: -0.00559710757807
  z: 0.907725393772
  w: 0.419527024031
orientation_covariance: [0.0, 0.0, 0.0, 0.0, 0.0, 0.0, 0.0, 0.0, 0.0]
angular_velocity: 
  x: 0.0485556323171
  y: 0.00136089514626
  z: 0.0517870033263
angular_velocity_covariance: [0.0, 0.0, 0.0, 0.0, 0.0, 0.0, 0.0, 0.0, 0.0]
linear_acceleration: 
  x: 0.475870996714
  y: 1.06173677146
  z: 7.22432889938
linear_acceleration_covariance: [0.0, 0.0, 0.0, 0.0, 0.0, 0.0, 0.0, 0.0, 0.0]
---
header: 
  seq: 17760
  stamp: 
    secs: 1668162630
    nsecs: 864661480
  frame_id: "imu_link"
orientation: 
  x: 0.000553582445718
  y: -0.00553376367316
  z: 0.907817542553
  w: 0.419328451157
orientation_covariance: [0.0, 0.0, 0.0, 0.0, 0.0, 0.0, 0.0, 0.0, 0.0]
angular_velocity: 
  x: -0.0774386546273
  y: 0.0222118255487
  z: 0.0394300500046
angular_velocity_covariance: [0.0, 0.0, 0.0, 0.0, 0.0, 0.0, 0.0, 0.0, 0.0]
linear_acceleration: 
  x: -0.500291313231
  y: 0.838579502702
  z: 11.0199286222
linear_acceleration_covariance: [0.0, 0.0, 0.0, 0.0, 0.0, 0.0, 0.0, 0.0, 0.0]
---
header: 
  seq: 17761
  stamp: 
    secs: 1668162630
    nsecs: 870685960
  frame_id: "imu_link"
orientation: 
  x: 0.000553582445718
  y: -0.00553376367316
  z: 0.907817542553
  w: 0.419328451157
orientation_covariance: [0.0, 0.0, 0.0, 0.0, 0.0, 0.0, 0.0, 0.0, 0.0]
angular_velocity: 
  x: -0.0774386546273
  y: 0.0222118255487
  z: 0.0394300500046
angular_velocity_covariance: [0.0, 0.0, 0.0, 0.0, 0.0, 0.0, 0.0, 0.0, 0.0]
linear_acceleration: 
  x: -0.500291313231
  y: 0.838579502702
  z: 11.0199286222
linear_acceleration_covariance: [0.0, 0.0, 0.0, 0.0, 0.0, 0.0, 0.0, 0.0, 0.0]
---
header: 
  seq: 17762
  stamp: 
    secs: 1668162630
    nsecs: 874662760
  frame_id: "imu_link"
orientation: 
  x: 0.000459057104308
  y: -0.00558584555984
  z: 0.9078733325
  w: 0.419207245111
orientation_covariance: [0.0, 0.0, 0.0, 0.0, 0.0, 0.0, 0.0, 0.0, 0.0]
angular_velocity: 
  x: -0.00953735065007
  y: 0.00682025521858
  z: 0.0193507857609
angular_velocity_covariance: [0.0, 0.0, 0.0, 0.0, 0.0, 0.0, 0.0, 0.0, 0.0]
linear_acceleration: 
  x: 0.246799949929
  y: 0.0572609940544
  z: 9.95365772247
linear_acceleration_covariance: [0.0, 0.0, 0.0, 0.0, 0.0, 0.0, 0.0, 0.0, 0.0]
---
header: 
  seq: 17763
  stamp: 
    secs: 1668162630
    nsecs: 880732552
  frame_id: "imu_link"
orientation: 
  x: 0.000459057104308
  y: -0.00558584555984
  z: 0.9078733325
  w: 0.419207245111
orientation_covariance: [0.0, 0.0, 0.0, 0.0, 0.0, 0.0, 0.0, 0.0, 0.0]
angular_velocity: 
  x: -0.00953735065007
  y: 0.00682025521858
  z: 0.0193507857609
angular_velocity_covariance: [0.0, 0.0, 0.0, 0.0, 0.0, 0.0, 0.0, 0.0, 0.0]
linear_acceleration: 
  x: 0.246799949929
  y: 0.0572609940544
  z: 9.95365772247
linear_acceleration_covariance: [0.0, 0.0, 0.0, 0.0, 0.0, 0.0, 0.0, 0.0, 0.0]
---
header: 
  seq: 17764
  stamp: 
    secs: 1668162630
    nsecs: 884669192
  frame_id: "imu_link"
orientation: 
  x: 0.000333575706463
  y: -0.00574549194425
  z: 0.907892823219
  w: 0.41916295886
orientation_covariance: [0.0, 0.0, 0.0, 0.0, 0.0, 0.0, 0.0, 0.0, 0.0]
angular_velocity: 
  x: -0.0446745333194
  y: 0.0122582509684
  z: 0.0046386423424
angular_velocity_covariance: [0.0, 0.0, 0.0, 0.0, 0.0, 0.0, 0.0, 0.0, 0.0]
linear_acceleration: 
  x: -0.0137855356559
  y: 0.342314055562
  z: 10.4617476225
linear_acceleration_covariance: [0.0, 0.0, 0.0, 0.0, 0.0, 0.0, 0.0, 0.0, 0.0]
---
header: 
  seq: 17765
  stamp: 
    secs: 1668162630
    nsecs: 890661608
  frame_id: "imu_link"
orientation: 
  x: 0.000333575706463
  y: -0.00574549194425
  z: 0.907892823219
  w: 0.41916295886
orientation_covariance: [0.0, 0.0, 0.0, 0.0, 0.0, 0.0, 0.0, 0.0, 0.0]
angular_velocity: 
  x: -0.0446745333194
  y: 0.0122582509684
  z: 0.0046386423424
angular_velocity_covariance: [0.0, 0.0, 0.0, 0.0, 0.0, 0.0, 0.0, 0.0, 0.0]
linear_acceleration: 
  x: -0.0137855356559
  y: 0.342314055562
  z: 10.4617476225
linear_acceleration_covariance: [0.0, 0.0, 0.0, 0.0, 0.0, 0.0, 0.0, 0.0, 0.0]
---
header: 
  seq: 17766
  stamp: 
    secs: 1668162630
    nsecs: 893200392
  frame_id: "imu_link"
orientation: 
  x: 0.000265141803538
  y: -0.00583589682356
  z: 0.907894253731
  w: 0.419158577919
orientation_covariance: [0.0, 0.0, 0.0, 0.0, 0.0, 0.0, 0.0, 0.0, 0.0]
angular_velocity: 
  x: -0.0338889842138
  y: 0.00074313353876
  z: -0.00186074245271
angular_velocity_covariance: [0.0, 0.0, 0.0, 0.0, 0.0, 0.0, 0.0, 0.0, 0.0]
linear_acceleration: 
  x: 1.0562190488
  y: -0.0795049866661
  z: 7.03317849636
linear_acceleration_covariance: [0.0, 0.0, 0.0, 0.0, 0.0, 0.0, 0.0, 0.0, 0.0]
---
header: 
  seq: 17767
  stamp: 
    secs: 1668162630
    nsecs: 900671752
  frame_id: "imu_link"
orientation: 
  x: 0.000265141803538
  y: -0.00583589682356
  z: 0.907894253731
  w: 0.419158577919
orientation_covariance: [0.0, 0.0, 0.0, 0.0, 0.0, 0.0, 0.0, 0.0, 0.0]
angular_velocity: 
  x: -0.0338889842138
  y: 0.00074313353876
  z: -0.00186074245271
angular_velocity_covariance: [0.0, 0.0, 0.0, 0.0, 0.0, 0.0, 0.0, 0.0, 0.0]
linear_acceleration: 
  x: 1.0562190488
  y: -0.0795049866661
  z: 7.03317849636
linear_acceleration_covariance: [0.0, 0.0, 0.0, 0.0, 0.0, 0.0, 0.0, 0.0, 0.0]
---
header: 
  seq: 17768
  stamp: 
    secs: 1668162630
    nsecs: 904702824
  frame_id: "imu_link"
orientation: 
  x: 0.000320661143633
  y: -0.00593278324232
  z: 0.907881438732
  w: 0.41918489337
orientation_covariance: [0.0, 0.0, 0.0, 0.0, 0.0, 0.0, 0.0, 0.0, 0.0]
angular_velocity: 
  x: -0.048871158604
  y: -0.00898775854451
  z: -0.00211562799825
angular_velocity_covariance: [0.0, 0.0, 0.0, 0.0, 0.0, 0.0, 0.0, 0.0, 0.0]
linear_acceleration: 
  x: -1.52842254043
  y: -0.450946433842
  z: 10.7118246078
linear_acceleration_covariance: [0.0, 0.0, 0.0, 0.0, 0.0, 0.0, 0.0, 0.0, 0.0]
---
header: 
  seq: 17769
  stamp: 
    secs: 1668162630
    nsecs: 910668168
  frame_id: "imu_link"
orientation: 
  x: 0.000320661143633
  y: -0.00593278324232
  z: 0.907881438732
  w: 0.41918489337
orientation_covariance: [0.0, 0.0, 0.0, 0.0, 0.0, 0.0, 0.0, 0.0, 0.0]
angular_velocity: 
  x: -0.048871158604
  y: -0.00898775854451
  z: -0.00211562799825
angular_velocity_covariance: [0.0, 0.0, 0.0, 0.0, 0.0, 0.0, 0.0, 0.0, 0.0]
linear_acceleration: 
  x: -1.52842254043
  y: -0.450946433842
  z: 10.7118246078
linear_acceleration_covariance: [0.0, 0.0, 0.0, 0.0, 0.0, 0.0, 0.0, 0.0, 0.0]
---
header: 
  seq: 17770
  stamp: 
    secs: 1668162630
    nsecs: 914666888
  frame_id: "imu_link"
orientation: 
  x: 2.96580255963e-05
  y: -0.00616873987019
  z: 0.907923340797
  w: 0.419091165066
orientation_covariance: [0.0, 0.0, 0.0, 0.0, 0.0, 0.0, 0.0, 0.0, 0.0]
angular_velocity: 
  x: -0.0377672099107
  y: -0.00636911007342
  z: 0.039356213874
angular_velocity_covariance: [0.0, 0.0, 0.0, 0.0, 0.0, 0.0, 0.0, 0.0, 0.0]
linear_acceleration: 
  x: 0.14993401356
  y: -1.33234985769
  z: 9.90715665817
linear_acceleration_covariance: [0.0, 0.0, 0.0, 0.0, 0.0, 0.0, 0.0, 0.0, 0.0]
---
header: 
  seq: 17771
  stamp: 
    secs: 1668162630
    nsecs: 920676104
  frame_id: "imu_link"
orientation: 
  x: 2.96580255963e-05
  y: -0.00616873987019
  z: 0.907923340797
  w: 0.419091165066
orientation_covariance: [0.0, 0.0, 0.0, 0.0, 0.0, 0.0, 0.0, 0.0, 0.0]
angular_velocity: 
  x: -0.0377672099107
  y: -0.00636911007342
  z: 0.039356213874
angular_velocity_covariance: [0.0, 0.0, 0.0, 0.0, 0.0, 0.0, 0.0, 0.0, 0.0]
linear_acceleration: 
  x: 0.14993401356
  y: -1.33234985769
  z: 9.90715665817
linear_acceleration_covariance: [0.0, 0.0, 0.0, 0.0, 0.0, 0.0, 0.0, 0.0, 0.0]
---
header: 
  seq: 17772
  stamp: 
    secs: 1668162630
    nsecs: 926405192
  frame_id: "imu_link"
orientation: 
  x: -0.000119029020425
  y: -0.00650588329881
  z: 0.908064544201
  w: 0.418779939413
orientation_covariance: [0.0, 0.0, 0.0, 0.0, 0.0, 0.0, 0.0, 0.0, 0.0]
angular_velocity: 
  x: -0.034370685487
  y: -0.00207960055737
  z: 0.0795416028337
angular_velocity_covariance: [0.0, 0.0, 0.0, 0.0, 0.0, 0.0, 0.0, 0.0, 0.0]
linear_acceleration: 
  x: 0.260745745897
  y: -0.760927316546
  z: 10.4533712626
linear_acceleration_covariance: [0.0, 0.0, 0.0, 0.0, 0.0, 0.0, 0.0, 0.0, 0.0]
---
header: 
  seq: 17773
  stamp: 
    secs: 1668162630
    nsecs: 930682856
  frame_id: "imu_link"
orientation: 
  x: -0.000119029020425
  y: -0.00650588329881
  z: 0.908064544201
  w: 0.418779939413
orientation_covariance: [0.0, 0.0, 0.0, 0.0, 0.0, 0.0, 0.0, 0.0, 0.0]
angular_velocity: 
  x: -0.034370685487
  y: -0.00207960055737
  z: 0.0795416028337
angular_velocity_covariance: [0.0, 0.0, 0.0, 0.0, 0.0, 0.0, 0.0, 0.0, 0.0]
linear_acceleration: 
  x: 0.260745745897
  y: -0.760927316546
  z: 10.4533712626
linear_acceleration_covariance: [0.0, 0.0, 0.0, 0.0, 0.0, 0.0, 0.0, 0.0, 0.0]
---
header: 
  seq: 17774
  stamp: 
    secs: 1668162630
    nsecs: 934681512
  frame_id: "imu_link"
orientation: 
  x: -0.000236288266024
  y: -0.00670470530167
  z: 0.908251583576
  w: 0.418370753527
orientation_covariance: [0.0, 0.0, 0.0, 0.0, 0.0, 0.0, 0.0, 0.0, 0.0]
angular_velocity: 
  x: 0.00263119601517
  y: -0.00592060520243
  z: 0.0915938947319
angular_velocity_covariance: [0.0, 0.0, 0.0, 0.0, 0.0, 0.0, 0.0, 0.0, 0.0]
linear_acceleration: 
  x: -0.730026419461
  y: 0.0685998287052
  z: 8.60548784733
linear_acceleration_covariance: [0.0, 0.0, 0.0, 0.0, 0.0, 0.0, 0.0, 0.0, 0.0]
---
header: 
  seq: 17775
  stamp: 
    secs: 1668162630
    nsecs: 940674344
  frame_id: "imu_link"
orientation: 
  x: -0.000236288266024
  y: -0.00670470530167
  z: 0.908251583576
  w: 0.418370753527
orientation_covariance: [0.0, 0.0, 0.0, 0.0, 0.0, 0.0, 0.0, 0.0, 0.0]
angular_velocity: 
  x: 0.00263119601517
  y: -0.00592060520243
  z: 0.0915938947319
angular_velocity_covariance: [0.0, 0.0, 0.0, 0.0, 0.0, 0.0, 0.0, 0.0, 0.0]
linear_acceleration: 
  x: -0.730026419461
  y: 0.0685998287052
  z: 8.60548784733
linear_acceleration_covariance: [0.0, 0.0, 0.0, 0.0, 0.0, 0.0, 0.0, 0.0, 0.0]
---
header: 
  seq: 17776
  stamp: 
    secs: 1668162630
    nsecs: 944669064
  frame_id: "imu_link"
orientation: 
  x: -0.000152333028382
  y: -0.00655697658658
  z: 0.908438026905
  w: 0.417968243361
orientation_covariance: [0.0, 0.0, 0.0, 0.0, 0.0, 0.0, 0.0, 0.0, 0.0]
angular_velocity: 
  x: 0.0263396372574
  y: 3.41910238284e-05
  z: 0.0864670274128
angular_velocity_covariance: [0.0, 0.0, 0.0, 0.0, 0.0, 0.0, 0.0, 0.0, 0.0]
linear_acceleration: 
  x: 0.693181169033
  y: -0.890402242541
  z: 11.0221284389
linear_acceleration_covariance: [0.0, 0.0, 0.0, 0.0, 0.0, 0.0, 0.0, 0.0, 0.0]
---
header: 
  seq: 17777
  stamp: 
    secs: 1668162630
    nsecs: 950665800
  frame_id: "imu_link"
orientation: 
  x: -0.000152333028382
  y: -0.00655697658658
  z: 0.908438026905
  w: 0.417968243361
orientation_covariance: [0.0, 0.0, 0.0, 0.0, 0.0, 0.0, 0.0, 0.0, 0.0]
angular_velocity: 
  x: 0.0263396372574
  y: 3.41910238284e-05
  z: 0.0864670274128
angular_velocity_covariance: [0.0, 0.0, 0.0, 0.0, 0.0, 0.0, 0.0, 0.0, 0.0]
linear_acceleration: 
  x: 0.693181169033
  y: -0.890402242541
  z: 11.0221284389
linear_acceleration_covariance: [0.0, 0.0, 0.0, 0.0, 0.0, 0.0, 0.0, 0.0, 0.0]
---
header: 
  seq: 17778
  stamp: 
    secs: 1668162630
    nsecs: 954689576
  frame_id: "imu_link"
orientation: 
  x: -4.52833592135e-05
  y: -0.00634889071807
  z: 0.9085932374
  w: 0.41763395071
orientation_covariance: [0.0, 0.0, 0.0, 0.0, 0.0, 0.0, 0.0, 0.0, 0.0]
angular_velocity: 
  x: 0.0986492815535
  y: 0.00218587419339
  z: 0.067532545685
angular_velocity_covariance: [0.0, 0.0, 0.0, 0.0, 0.0, 0.0, 0.0, 0.0, 0.0]
linear_acceleration: 
  x: 0.658861020207
  y: -0.382941299677
  z: 9.6534604311
linear_acceleration_covariance: [0.0, 0.0, 0.0, 0.0, 0.0, 0.0, 0.0, 0.0, 0.0]
---
header: 
  seq: 17779
  stamp: 
    secs: 1668162630
    nsecs: 960661896
  frame_id: "imu_link"
orientation: 
  x: -4.52833592135e-05
  y: -0.00634889071807
  z: 0.9085932374
  w: 0.41763395071
orientation_covariance: [0.0, 0.0, 0.0, 0.0, 0.0, 0.0, 0.0, 0.0, 0.0]
angular_velocity: 
  x: 0.0986492815535
  y: 0.00218587419339
  z: 0.067532545685
angular_velocity_covariance: [0.0, 0.0, 0.0, 0.0, 0.0, 0.0, 0.0, 0.0, 0.0]
linear_acceleration: 
  x: 0.658861020207
  y: -0.382941299677
  z: 9.6534604311
linear_acceleration_covariance: [0.0, 0.0, 0.0, 0.0, 0.0, 0.0, 0.0, 0.0, 0.0]
---
header: 
  seq: 17780
  stamp: 
    secs: 1668162630
    nsecs: 964658824
  frame_id: "imu_link"
orientation: 
  x: 0.00011423612159
  y: -0.00608463166282
  z: 0.90871655941
  w: 0.417369455099
orientation_covariance: [0.0, 0.0, 0.0, 0.0, 0.0, 0.0, 0.0, 0.0, 0.0]
angular_velocity: 
  x: 0.0498847950193
  y: 0.00162032392954
  z: 0.0509843599791
angular_velocity_covariance: [0.0, 0.0, 0.0, 0.0, 0.0, 0.0, 0.0, 0.0, 0.0]
linear_acceleration: 
  x: 0.398483711481
  y: -0.528935587406
  z: 10.1016307354
linear_acceleration_covariance: [0.0, 0.0, 0.0, 0.0, 0.0, 0.0, 0.0, 0.0, 0.0]
---
header: 
  seq: 17781
  stamp: 
    secs: 1668162630
    nsecs: 970664104
  frame_id: "imu_link"
orientation: 
  x: 0.00011423612159
  y: -0.00608463166282
  z: 0.90871655941
  w: 0.417369455099
orientation_covariance: [0.0, 0.0, 0.0, 0.0, 0.0, 0.0, 0.0, 0.0, 0.0]
angular_velocity: 
  x: 0.0498847950193
  y: 0.00162032392954
  z: 0.0509843599791
angular_velocity_covariance: [0.0, 0.0, 0.0, 0.0, 0.0, 0.0, 0.0, 0.0, 0.0]
linear_acceleration: 
  x: 0.398483711481
  y: -0.528935587406
  z: 10.1016307354
linear_acceleration_covariance: [0.0, 0.0, 0.0, 0.0, 0.0, 0.0, 0.0, 0.0, 0.0]
---
header: 
  seq: 17782
  stamp: 
    secs: 1668162630
    nsecs: 974659240
  frame_id: "imu_link"
orientation: 
  x: 0.000178303816938
  y: -0.00596990389749
  z: 0.908816874027
  w: 0.417152673006
orientation_covariance: [0.0, 0.0, 0.0, 0.0, 0.0, 0.0, 0.0, 0.0, 0.0]
angular_velocity: 
  x: 0.0240374617437
  y: -0.000263519719307
  z: 0.0455013490112
angular_velocity_covariance: [0.0, 0.0, 0.0, 0.0, 0.0, 0.0, 0.0, 0.0, 0.0]
linear_acceleration: 
  x: -0.00341786444187
  y: 0.117664565146
  z: 9.61224745512
linear_acceleration_covariance: [0.0, 0.0, 0.0, 0.0, 0.0, 0.0, 0.0, 0.0, 0.0]
---
header: 
  seq: 17783
  stamp: 
    secs: 1668162630
    nsecs: 981023080
  frame_id: "imu_link"
orientation: 
  x: 0.000178303816938
  y: -0.00596990389749
  z: 0.908816874027
  w: 0.417152673006
orientation_covariance: [0.0, 0.0, 0.0, 0.0, 0.0, 0.0, 0.0, 0.0, 0.0]
angular_velocity: 
  x: 0.0240374617437
  y: -0.000263519719307
  z: 0.0455013490112
angular_velocity_covariance: [0.0, 0.0, 0.0, 0.0, 0.0, 0.0, 0.0, 0.0, 0.0]
linear_acceleration: 
  x: -0.00341786444187
  y: 0.117664565146
  z: 9.61224745512
linear_acceleration_covariance: [0.0, 0.0, 0.0, 0.0, 0.0, 0.0, 0.0, 0.0, 0.0]
---
header: 
  seq: 17784
  stamp: 
    secs: 1668162630
    nsecs: 984721448
  frame_id: "imu_link"
orientation: 
  x: 0.000237093088799
  y: -0.00584205752239
  z: 0.908908307552
  w: 0.416955053806
orientation_covariance: [0.0, 0.0, 0.0, 0.0, 0.0, 0.0, 0.0, 0.0, 0.0]
angular_velocity: 
  x: 0.0144889216574
  y: 0.00408886012253
  z: 0.043972336904
angular_velocity_covariance: [0.0, 0.0, 0.0, 0.0, 0.0, 0.0, 0.0, 0.0, 0.0]
linear_acceleration: 
  x: 0.806355707347
  y: -0.0722527762875
  z: 8.98774192333
linear_acceleration_covariance: [0.0, 0.0, 0.0, 0.0, 0.0, 0.0, 0.0, 0.0, 0.0]
---
header: 
  seq: 17785
  stamp: 
    secs: 1668162630
    nsecs: 990688136
  frame_id: "imu_link"
orientation: 
  x: 0.000237093088799
  y: -0.00584205752239
  z: 0.908908307552
  w: 0.416955053806
orientation_covariance: [0.0, 0.0, 0.0, 0.0, 0.0, 0.0, 0.0, 0.0, 0.0]
angular_velocity: 
  x: 0.0144889216574
  y: 0.00408886012253
  z: 0.043972336904
angular_velocity_covariance: [0.0, 0.0, 0.0, 0.0, 0.0, 0.0, 0.0, 0.0, 0.0]
linear_acceleration: 
  x: 0.806355707347
  y: -0.0722527762875
  z: 8.98774192333
linear_acceleration_covariance: [0.0, 0.0, 0.0, 0.0, 0.0, 0.0, 0.0, 0.0, 0.0]
---
header: 
  seq: 17786
  stamp: 
    secs: 1668162630
    nsecs: 994681448
  frame_id: "imu_link"
orientation: 
  x: 0.000285848858766
  y: -0.00581797165796
  z: 0.908998906612
  w: 0.416757851839
orientation_covariance: [0.0, 0.0, 0.0, 0.0, 0.0, 0.0, 0.0, 0.0, 0.0]
angular_velocity: 
  x: -0.0115823241366
  y: 0.0051155109152
  z: 0.0427640067964
angular_velocity_covariance: [0.0, 0.0, 0.0, 0.0, 0.0, 0.0, 0.0, 0.0, 0.0]
linear_acceleration: 
  x: -0.296976277232
  y: -0.377426862717
  z: 10.6872200727
linear_acceleration_covariance: [0.0, 0.0, 0.0, 0.0, 0.0, 0.0, 0.0, 0.0, 0.0]
---
header: 
  seq: 17787
  stamp: 
    secs: 1668162631
    nsecs:    665224
  frame_id: "imu_link"
orientation: 
  x: 0.000285848858766
  y: -0.00581797165796
  z: 0.908998906612
  w: 0.416757851839
orientation_covariance: [0.0, 0.0, 0.0, 0.0, 0.0, 0.0, 0.0, 0.0, 0.0]
angular_velocity: 
  x: -0.0115823241366
  y: 0.0051155109152
  z: 0.0427640067964
angular_velocity_covariance: [0.0, 0.0, 0.0, 0.0, 0.0, 0.0, 0.0, 0.0, 0.0]
linear_acceleration: 
  x: -0.296976277232
  y: -0.377426862717
  z: 10.6872200727
linear_acceleration_covariance: [0.0, 0.0, 0.0, 0.0, 0.0, 0.0, 0.0, 0.0, 0.0]
---
header: 
  seq: 17788
  stamp: 
    secs: 1668162631
    nsecs:   4666376
  frame_id: "imu_link"
orientation: 
  x: 0.000265709444648
  y: -0.00576187111437
  z: 0.909089386463
  w: 0.416561156511
orientation_covariance: [0.0, 0.0, 0.0, 0.0, 0.0, 0.0, 0.0, 0.0, 0.0]
angular_velocity: 
  x: 0.0157957117291
  y: 0.00114540058237
  z: 0.0442157789208
angular_velocity_covariance: [0.0, 0.0, 0.0, 0.0, 0.0, 0.0, 0.0, 0.0, 0.0]
linear_acceleration: 
  x: 0.150056132302
  y: 0.949541811645
  z: 9.89312245846
linear_acceleration_covariance: [0.0, 0.0, 0.0, 0.0, 0.0, 0.0, 0.0, 0.0, 0.0]
---
header: 
  seq: 17789
  stamp: 
    secs: 1668162631
    nsecs:  10737288
  frame_id: "imu_link"
orientation: 
  x: 0.000265709444648
  y: -0.00576187111437
  z: 0.909089386463
  w: 0.416561156511
orientation_covariance: [0.0, 0.0, 0.0, 0.0, 0.0, 0.0, 0.0, 0.0, 0.0]
angular_velocity: 
  x: 0.0157957117291
  y: 0.00114540058237
  z: 0.0442157789208
angular_velocity_covariance: [0.0, 0.0, 0.0, 0.0, 0.0, 0.0, 0.0, 0.0, 0.0]
linear_acceleration: 
  x: 0.150056132302
  y: 0.949541811645
  z: 9.89312245846
linear_acceleration_covariance: [0.0, 0.0, 0.0, 0.0, 0.0, 0.0, 0.0, 0.0, 0.0]
---
header: 
  seq: 17790
  stamp: 
    secs: 1668162631
    nsecs:  14673512
  frame_id: "imu_link"
orientation: 
  x: 0.000292185577564
  y: -0.00573901226744
  z: 0.909166514874
  w: 0.416393131018
orientation_covariance: [0.0, 0.0, 0.0, 0.0, 0.0, 0.0, 0.0, 0.0, 0.0]
angular_velocity: 
  x: -0.0311144742624
  y: -0.00211859089458
  z: 0.0311027875642
angular_velocity_covariance: [0.0, 0.0, 0.0, 0.0, 0.0, 0.0, 0.0, 0.0, 0.0]
linear_acceleration: 
  x: 0.27047322467
  y: -0.251429308951
  z: 10.2374223948
linear_acceleration_covariance: [0.0, 0.0, 0.0, 0.0, 0.0, 0.0, 0.0, 0.0, 0.0]
---
header: 
  seq: 17791
  stamp: 
    secs: 1668162631
    nsecs:  20677096
  frame_id: "imu_link"
orientation: 
  x: 0.000292185577564
  y: -0.00573901226744
  z: 0.909166514874
  w: 0.416393131018
orientation_covariance: [0.0, 0.0, 0.0, 0.0, 0.0, 0.0, 0.0, 0.0, 0.0]
angular_velocity: 
  x: -0.0311144742624
  y: -0.00211859089458
  z: 0.0311027875642
angular_velocity_covariance: [0.0, 0.0, 0.0, 0.0, 0.0, 0.0, 0.0, 0.0, 0.0]
linear_acceleration: 
  x: 0.27047322467
  y: -0.251429308951
  z: 10.2374223948
linear_acceleration_covariance: [0.0, 0.0, 0.0, 0.0, 0.0, 0.0, 0.0, 0.0, 0.0]
---
header: 
  seq: 17792
  stamp: 
    secs: 1668162631
    nsecs:  25002920
  frame_id: "imu_link"
orientation: 
  x: 0.000335926364642
  y: -0.00570576824248
  z: 0.909214496613
  w: 0.41628870368
orientation_covariance: [0.0, 0.0, 0.0, 0.0, 0.0, 0.0, 0.0, 0.0, 0.0]
angular_velocity: 
  x: 0.0207696012716
  y: 0.00470740390346
  z: 0.0176073184767
angular_velocity_covariance: [0.0, 0.0, 0.0, 0.0, 0.0, 0.0, 0.0, 0.0, 0.0]
linear_acceleration: 
  x: 0.357681558281
  y: 1.02321938872
  z: 8.78729808331
linear_acceleration_covariance: [0.0, 0.0, 0.0, 0.0, 0.0, 0.0, 0.0, 0.0, 0.0]
---
header: 
  seq: 17793
  stamp: 
    secs: 1668162631
    nsecs:  30871272
  frame_id: "imu_link"
orientation: 
  x: 0.000335926364642
  y: -0.00570576824248
  z: 0.909214496613
  w: 0.41628870368
orientation_covariance: [0.0, 0.0, 0.0, 0.0, 0.0, 0.0, 0.0, 0.0, 0.0]
angular_velocity: 
  x: 0.0207696012716
  y: 0.00470740390346
  z: 0.0176073184767
angular_velocity_covariance: [0.0, 0.0, 0.0, 0.0, 0.0, 0.0, 0.0, 0.0, 0.0]
linear_acceleration: 
  x: 0.357681558281
  y: 1.02321938872
  z: 8.78729808331
linear_acceleration_covariance: [0.0, 0.0, 0.0, 0.0, 0.0, 0.0, 0.0, 0.0, 0.0]
---
header: 
  seq: 17794
  stamp: 
    secs: 1668162631
    nsecs:  34660872
  frame_id: "imu_link"
orientation: 
  x: 0.000240086257691
  y: -0.00589443417266
  z: 0.90924346447
  w: 0.416223078966
orientation_covariance: [0.0, 0.0, 0.0, 0.0, 0.0, 0.0, 0.0, 0.0, 0.0]
angular_velocity: 
  x: -0.0721401798903
  y: 0.000452150072205
  z: 0.0137398400897
angular_velocity_covariance: [0.0, 0.0, 0.0, 0.0, 0.0, 0.0, 0.0, 0.0, 0.0]
linear_acceleration: 
  x: 0.517156550288
  y: 0.0580667952076
  z: 8.22772394419
linear_acceleration_covariance: [0.0, 0.0, 0.0, 0.0, 0.0, 0.0, 0.0, 0.0, 0.0]
---
header: 
  seq: 17795
  stamp: 
    secs: 1668162631
    nsecs:  40662600
  frame_id: "imu_link"
orientation: 
  x: 0.000240086257691
  y: -0.00589443417266
  z: 0.90924346447
  w: 0.416223078966
orientation_covariance: [0.0, 0.0, 0.0, 0.0, 0.0, 0.0, 0.0, 0.0, 0.0]
angular_velocity: 
  x: -0.0721401798903
  y: 0.000452150072205
  z: 0.0137398400897
angular_velocity_covariance: [0.0, 0.0, 0.0, 0.0, 0.0, 0.0, 0.0, 0.0, 0.0]
linear_acceleration: 
  x: 0.517156550288
  y: 0.0580667952076
  z: 8.22772394419
linear_acceleration_covariance: [0.0, 0.0, 0.0, 0.0, 0.0, 0.0, 0.0, 0.0, 0.0]
---
header: 
  seq: 17796
  stamp: 
    secs: 1668162631
    nsecs:  44655272
  frame_id: "imu_link"
orientation: 
  x: 0.000208328216104
  y: -0.00592453451827
  z: 0.909269273281
  w: 0.416166126728
orientation_covariance: [0.0, 0.0, 0.0, 0.0, 0.0, 0.0, 0.0, 0.0, 0.0]
angular_velocity: 
  x: -0.0457515945714
  y: 0.00555131011694
  z: 0.0149817353848
angular_velocity_covariance: [0.0, 0.0, 0.0, 0.0, 0.0, 0.0, 0.0, 0.0, 0.0]
linear_acceleration: 
  x: -0.328091986477
  y: -0.209813852236
  z: 11.4697601795
linear_acceleration_covariance: [0.0, 0.0, 0.0, 0.0, 0.0, 0.0, 0.0, 0.0, 0.0]
---
header: 
  seq: 17797
  stamp: 
    secs: 1668162631
    nsecs:  50664712
  frame_id: "imu_link"
orientation: 
  x: 0.000208328216104
  y: -0.00592453451827
  z: 0.909269273281
  w: 0.416166126728
orientation_covariance: [0.0, 0.0, 0.0, 0.0, 0.0, 0.0, 0.0, 0.0, 0.0]
angular_velocity: 
  x: -0.0457515945714
  y: 0.00555131011694
  z: 0.0149817353848
angular_velocity_covariance: [0.0, 0.0, 0.0, 0.0, 0.0, 0.0, 0.0, 0.0, 0.0]
linear_acceleration: 
  x: -0.328091986477
  y: -0.209813852236
  z: 11.4697601795
linear_acceleration_covariance: [0.0, 0.0, 0.0, 0.0, 0.0, 0.0, 0.0, 0.0, 0.0]
---
header: 
  seq: 17798
  stamp: 
    secs: 1668162631
    nsecs:  54797800
  frame_id: "imu_link"
orientation: 
  x: 1.49127899931e-05
  y: -0.00618628552184
  z: 0.909305810928
  w: 0.416082829237
orientation_covariance: [0.0, 0.0, 0.0, 0.0, 0.0, 0.0, 0.0, 0.0, 0.0]
angular_velocity: 
  x: -0.0198696651737
  y: 0.0116995593836
  z: 0.0202228710235
angular_velocity_covariance: [0.0, 0.0, 0.0, 0.0, 0.0, 0.0, 0.0, 0.0, 0.0]
linear_acceleration: 
  x: 0.294365491718
  y: -0.803731669486
  z: 9.64302970171
linear_acceleration_covariance: [0.0, 0.0, 0.0, 0.0, 0.0, 0.0, 0.0, 0.0, 0.0]
---
header: 
  seq: 17799
  stamp: 
    secs: 1668162631
    nsecs:  60670280
  frame_id: "imu_link"
orientation: 
  x: 1.49127899931e-05
  y: -0.00618628552184
  z: 0.909305810928
  w: 0.416082829237
orientation_covariance: [0.0, 0.0, 0.0, 0.0, 0.0, 0.0, 0.0, 0.0, 0.0]
angular_velocity: 
  x: -0.0198696651737
  y: 0.0116995593836
  z: 0.0202228710235
angular_velocity_covariance: [0.0, 0.0, 0.0, 0.0, 0.0, 0.0, 0.0, 0.0, 0.0]
linear_acceleration: 
  x: 0.294365491718
  y: -0.803731669486
  z: 9.64302970171
linear_acceleration_covariance: [0.0, 0.0, 0.0, 0.0, 0.0, 0.0, 0.0, 0.0, 0.0]
---
header: 
  seq: 17800
  stamp: 
    secs: 1668162631
    nsecs:  64646056
  frame_id: "imu_link"
orientation: 
  x: -1.31365986817e-05
  y: -0.00627344381064
  z: 0.909354090691
  w: 0.415975630283
orientation_covariance: [0.0, 0.0, 0.0, 0.0, 0.0, 0.0, 0.0, 0.0, 0.0]
angular_velocity: 
  x: -0.0166795419465
  y: 0.00979060162871
  z: 0.0233905571217
angular_velocity_covariance: [0.0, 0.0, 0.0, 0.0, 0.0, 0.0, 0.0, 0.0, 0.0]
linear_acceleration: 
  x: 0.746710285544
  y: 0.252882521972
  z: 9.14255913496
linear_acceleration_covariance: [0.0, 0.0, 0.0, 0.0, 0.0, 0.0, 0.0, 0.0, 0.0]
---
header: 
  seq: 17801
  stamp: 
    secs: 1668162631
    nsecs:  70655432
  frame_id: "imu_link"
orientation: 
  x: -1.31365986817e-05
  y: -0.00627344381064
  z: 0.909354090691
  w: 0.415975630283
orientation_covariance: [0.0, 0.0, 0.0, 0.0, 0.0, 0.0, 0.0, 0.0, 0.0]
angular_velocity: 
  x: -0.0166795419465
  y: 0.00979060162871
  z: 0.0233905571217
angular_velocity_covariance: [0.0, 0.0, 0.0, 0.0, 0.0, 0.0, 0.0, 0.0, 0.0]
linear_acceleration: 
  x: 0.746710285544
  y: 0.252882521972
  z: 9.14255913496
linear_acceleration_covariance: [0.0, 0.0, 0.0, 0.0, 0.0, 0.0, 0.0, 0.0, 0.0]
---
header: 
  seq: 17802
  stamp: 
    secs: 1668162631
    nsecs:  74650568
  frame_id: "imu_link"
orientation: 
  x: -0.000137432827614
  y: -0.00644904235378
  z: 0.909402787685
  w: 0.415866494179
orientation_covariance: [0.0, 0.0, 0.0, 0.0, 0.0, 0.0, 0.0, 0.0, 0.0]
angular_velocity: 
  x: -0.0555088702808
  y: 0.0109096347095
  z: 0.0251663131489
angular_velocity_covariance: [0.0, 0.0, 0.0, 0.0, 0.0, 0.0, 0.0, 0.0, 0.0]
linear_acceleration: 
  x: -0.144567013532
  y: 0.0679525902495
  z: 8.45969887972
linear_acceleration_covariance: [0.0, 0.0, 0.0, 0.0, 0.0, 0.0, 0.0, 0.0, 0.0]
---
header: 
  seq: 17803
  stamp: 
    secs: 1668162631
    nsecs:  80659688
  frame_id: "imu_link"
orientation: 
  x: -0.000137432827614
  y: -0.00644904235378
  z: 0.909402787685
  w: 0.415866494179
orientation_covariance: [0.0, 0.0, 0.0, 0.0, 0.0, 0.0, 0.0, 0.0, 0.0]
angular_velocity: 
  x: -0.0555088702808
  y: 0.0109096347095
  z: 0.0251663131489
angular_velocity_covariance: [0.0, 0.0, 0.0, 0.0, 0.0, 0.0, 0.0, 0.0, 0.0]
linear_acceleration: 
  x: -0.144567013532
  y: 0.0679525902495
  z: 8.45969887972
linear_acceleration_covariance: [0.0, 0.0, 0.0, 0.0, 0.0, 0.0, 0.0, 0.0, 0.0]
---
header: 
  seq: 17804
  stamp: 
    secs: 1668162631
    nsecs:  84670248
  frame_id: "imu_link"
orientation: 
  x: -0.000180433853529
  y: -0.0064387829043
  z: 0.909451127052
  w: 0.415760934353
orientation_covariance: [0.0, 0.0, 0.0, 0.0, 0.0, 0.0, 0.0, 0.0, 0.0]
angular_velocity: 
  x: -0.0170292523978
  y: -0.000333177073742
  z: 0.0236003808958
angular_velocity_covariance: [0.0, 0.0, 0.0, 0.0, 0.0, 0.0, 0.0, 0.0, 0.0]
linear_acceleration: 
  x: -0.83103902638
  y: -0.38152384609
  z: 11.5473484039
linear_acceleration_covariance: [0.0, 0.0, 0.0, 0.0, 0.0, 0.0, 0.0, 0.0, 0.0]
---
header: 
  seq: 17805
  stamp: 
    secs: 1668162631
    nsecs:  90654312
  frame_id: "imu_link"
orientation: 
  x: -0.000180433853529
  y: -0.0064387829043
  z: 0.909451127052
  w: 0.415760934353
orientation_covariance: [0.0, 0.0, 0.0, 0.0, 0.0, 0.0, 0.0, 0.0, 0.0]
angular_velocity: 
  x: -0.0170292523978
  y: -0.000333177073742
  z: 0.0236003808958
angular_velocity_covariance: [0.0, 0.0, 0.0, 0.0, 0.0, 0.0, 0.0, 0.0, 0.0]
linear_acceleration: 
  x: -0.83103902638
  y: -0.38152384609
  z: 11.5473484039
linear_acceleration_covariance: [0.0, 0.0, 0.0, 0.0, 0.0, 0.0, 0.0, 0.0, 0.0]
---
header: 
  seq: 17806
  stamp: 
    secs: 1668162631
    nsecs:  94661064
  frame_id: "imu_link"
orientation: 
  x: -0.000299223844195
  y: -0.00651225121692
  z: 0.909497618675
  w: 0.41565823555
orientation_covariance: [0.0, 0.0, 0.0, 0.0, 0.0, 0.0, 0.0, 0.0, 0.0]
angular_velocity: 
  x: 0.0251142025841
  y: 0.0131762767934
  z: 0.0216273137887
angular_velocity_covariance: [0.0, 0.0, 0.0, 0.0, 0.0, 0.0, 0.0, 0.0, 0.0]
linear_acceleration: 
  x: 0.658731782436
  y: -0.95164539367
  z: 10.1262492895
linear_acceleration_covariance: [0.0, 0.0, 0.0, 0.0, 0.0, 0.0, 0.0, 0.0, 0.0]
---
header: 
  seq: 17807
  stamp: 
    secs: 1668162631
    nsecs: 100667784
  frame_id: "imu_link"
orientation: 
  x: -0.000299223844195
  y: -0.00651225121692
  z: 0.909497618675
  w: 0.41565823555
orientation_covariance: [0.0, 0.0, 0.0, 0.0, 0.0, 0.0, 0.0, 0.0, 0.0]
angular_velocity: 
  x: 0.0251142025841
  y: 0.0131762767934
  z: 0.0216273137887
angular_velocity_covariance: [0.0, 0.0, 0.0, 0.0, 0.0, 0.0, 0.0, 0.0, 0.0]
linear_acceleration: 
  x: 0.658731782436
  y: -0.95164539367
  z: 10.1262492895
linear_acceleration_covariance: [0.0, 0.0, 0.0, 0.0, 0.0, 0.0, 0.0, 0.0, 0.0]
---
header: 
  seq: 17808
  stamp: 
    secs: 1668162631
    nsecs: 104677416
  frame_id: "imu_link"
orientation: 
  x: -0.000314215401886
  y: -0.00654909433797
  z: 0.909545600414
  w: 0.415552318096
orientation_covariance: [0.0, 0.0, 0.0, 0.0, 0.0, 0.0, 0.0, 0.0, 0.0]
angular_velocity: 
  x: 0.00879058894496
  y: 0.00158592338336
  z: 0.0224320522943
angular_velocity_covariance: [0.0, 0.0, 0.0, 0.0, 0.0, 0.0, 0.0, 0.0, 0.0]
linear_acceleration: 
  x: -0.625278402865
  y: 0.49051604569
  z: 8.55049710274
linear_acceleration_covariance: [0.0, 0.0, 0.0, 0.0, 0.0, 0.0, 0.0, 0.0, 0.0]
---
header: 
  seq: 17809
  stamp: 
    secs: 1668162631
    nsecs: 110671816
  frame_id: "imu_link"
orientation: 
  x: -0.000314215401886
  y: -0.00654909433797
  z: 0.909545600414
  w: 0.415552318096
orientation_covariance: [0.0, 0.0, 0.0, 0.0, 0.0, 0.0, 0.0, 0.0, 0.0]
angular_velocity: 
  x: 0.00879058894496
  y: 0.00158592338336
  z: 0.0224320522943
angular_velocity_covariance: [0.0, 0.0, 0.0, 0.0, 0.0, 0.0, 0.0, 0.0, 0.0]
linear_acceleration: 
  x: -0.625278402865
  y: 0.49051604569
  z: 8.55049710274
linear_acceleration_covariance: [0.0, 0.0, 0.0, 0.0, 0.0, 0.0, 0.0, 0.0, 0.0]
---
header: 
  seq: 17810
  stamp: 
    secs: 1668162631
    nsecs: 114670632
  frame_id: "imu_link"
orientation: 
  x: -0.0003921543248
  y: -0.00649339146912
  z: 0.909590601921
  w: 0.415454685688
orientation_covariance: [0.0, 0.0, 0.0, 0.0, 0.0, 0.0, 0.0, 0.0, 0.0]
angular_velocity: 
  x: -0.036763294032
  y: -0.00441573163015
  z: 0.0210043131147
angular_velocity_covariance: [0.0, 0.0, 0.0, 0.0, 0.0, 0.0, 0.0, 0.0, 0.0]
linear_acceleration: 
  x: -0.383231975138
  y: 0.339367580414
  z: 9.58693203926
linear_acceleration_covariance: [0.0, 0.0, 0.0, 0.0, 0.0, 0.0, 0.0, 0.0, 0.0]
---
header: 
  seq: 17811
  stamp: 
    secs: 1668162631
    nsecs: 120689512
  frame_id: "imu_link"
orientation: 
  x: -0.0003921543248
  y: -0.00649339146912
  z: 0.909590601921
  w: 0.415454685688
orientation_covariance: [0.0, 0.0, 0.0, 0.0, 0.0, 0.0, 0.0, 0.0, 0.0]
angular_velocity: 
  x: -0.036763294032
  y: -0.00441573163015
  z: 0.0210043131147
angular_velocity_covariance: [0.0, 0.0, 0.0, 0.0, 0.0, 0.0, 0.0, 0.0, 0.0]
linear_acceleration: 
  x: -0.383231975138
  y: 0.339367580414
  z: 9.58693203926
linear_acceleration_covariance: [0.0, 0.0, 0.0, 0.0, 0.0, 0.0, 0.0, 0.0, 0.0]
---
header: 
  seq: 17812
  stamp: 
    secs: 1668162631
    nsecs: 124664712
  frame_id: "imu_link"
orientation: 
  x: -0.000347341876477
  y: -0.0063927997835
  z: 0.909639894962
  w: 0.415348351002
orientation_covariance: [0.0, 0.0, 0.0, 0.0, 0.0, 0.0, 0.0, 0.0, 0.0]
angular_velocity: 
  x: 0.0201365388435
  y: -0.0123936768514
  z: 0.0276230227238
angular_velocity_covariance: [0.0, 0.0, 0.0, 0.0, 0.0, 0.0, 0.0, 0.0, 0.0]
linear_acceleration: 
  x: 0.226107449457
  y: -0.914036910236
  z: 11.9103905916
linear_acceleration_covariance: [0.0, 0.0, 0.0, 0.0, 0.0, 0.0, 0.0, 0.0, 0.0]
---
header: 
  seq: 17813
  stamp: 
    secs: 1668162631
    nsecs: 130677576
  frame_id: "imu_link"
orientation: 
  x: -0.000347341876477
  y: -0.0063927997835
  z: 0.909639894962
  w: 0.415348351002
orientation_covariance: [0.0, 0.0, 0.0, 0.0, 0.0, 0.0, 0.0, 0.0, 0.0]
angular_velocity: 
  x: 0.0201365388435
  y: -0.0123936768514
  z: 0.0276230227238
angular_velocity_covariance: [0.0, 0.0, 0.0, 0.0, 0.0, 0.0, 0.0, 0.0, 0.0]
linear_acceleration: 
  x: 0.226107449457
  y: -0.914036910236
  z: 11.9103905916
linear_acceleration_covariance: [0.0, 0.0, 0.0, 0.0, 0.0, 0.0, 0.0, 0.0, 0.0]
---
header: 
  seq: 17814
  stamp: 
    secs: 1668162631
    nsecs: 134658152
  frame_id: "imu_link"
orientation: 
  x: -0.000260869826889
  y: -0.00632453244179
  z: 0.909703791142
  w: 0.415209710598
orientation_covariance: [0.0, 0.0, 0.0, 0.0, 0.0, 0.0, 0.0, 0.0, 0.0]
angular_velocity: 
  x: 0.070672678473
  y: -0.0160363449436
  z: 0.0308359679899
angular_velocity_covariance: [0.0, 0.0, 0.0, 0.0, 0.0, 0.0, 0.0, 0.0, 0.0]
linear_acceleration: 
  x: -0.157727288455
  y: 0.306311771274
  z: 8.67090523243
linear_acceleration_covariance: [0.0, 0.0, 0.0, 0.0, 0.0, 0.0, 0.0, 0.0, 0.0]
---
header: 
  seq: 17815
  stamp: 
    secs: 1668162631
    nsecs: 140661800
  frame_id: "imu_link"
orientation: 
  x: -0.000260869826889
  y: -0.00632453244179
  z: 0.909703791142
  w: 0.415209710598
orientation_covariance: [0.0, 0.0, 0.0, 0.0, 0.0, 0.0, 0.0, 0.0, 0.0]
angular_velocity: 
  x: 0.070672678473
  y: -0.0160363449436
  z: 0.0308359679899
angular_velocity_covariance: [0.0, 0.0, 0.0, 0.0, 0.0, 0.0, 0.0, 0.0, 0.0]
linear_acceleration: 
  x: -0.157727288455
  y: 0.306311771274
  z: 8.67090523243
linear_acceleration_covariance: [0.0, 0.0, 0.0, 0.0, 0.0, 0.0, 0.0, 0.0, 0.0]
---
header: 
  seq: 17816
  stamp: 
    secs: 1668162631
    nsecs: 144660168
  frame_id: "imu_link"
orientation: 
  x: -0.000164960554685
  y: -0.00625541061163
  z: 0.90977793932
  w: 0.415048211813
orientation_covariance: [0.0, 0.0, 0.0, 0.0, 0.0, 0.0, 0.0, 0.0, 0.0]
angular_velocity: 
  x: -0.0219180310692
  y: -0.0182074742253
  z: 0.0354930912111
angular_velocity_covariance: [0.0, 0.0, 0.0, 0.0, 0.0, 0.0, 0.0, 0.0, 0.0]
linear_acceleration: 
  x: 0.335208351165
  y: 0.350346475095
  z: 9.06896457672
linear_acceleration_covariance: [0.0, 0.0, 0.0, 0.0, 0.0, 0.0, 0.0, 0.0, 0.0]
---
header: 
  seq: 17817
  stamp: 
    secs: 1668162631
    nsecs: 150680840
  frame_id: "imu_link"
orientation: 
  x: -0.000164960554685
  y: -0.00625541061163
  z: 0.90977793932
  w: 0.415048211813
orientation_covariance: [0.0, 0.0, 0.0, 0.0, 0.0, 0.0, 0.0, 0.0, 0.0]
angular_velocity: 
  x: -0.0219180310692
  y: -0.0182074742253
  z: 0.0354930912111
angular_velocity_covariance: [0.0, 0.0, 0.0, 0.0, 0.0, 0.0, 0.0, 0.0, 0.0]
linear_acceleration: 
  x: 0.335208351165
  y: 0.350346475095
  z: 9.06896457672
linear_acceleration_covariance: [0.0, 0.0, 0.0, 0.0, 0.0, 0.0, 0.0, 0.0, 0.0]
---
header: 
  seq: 17818
  stamp: 
    secs: 1668162631
    nsecs: 154696680
  frame_id: "imu_link"
orientation: 
  x: -3.14031203743e-05
  y: -0.00616355892271
  z: 0.909855484962
  w: 0.414879560471
orientation_covariance: [0.0, 0.0, 0.0, 0.0, 0.0, 0.0, 0.0, 0.0, 0.0]
angular_velocity: 
  x: 0.0190103734855
  y: -0.0252314960878
  z: 0.0384634641488
angular_velocity_covariance: [0.0, 0.0, 0.0, 0.0, 0.0, 0.0, 0.0, 0.0, 0.0]
linear_acceleration: 
  x: -0.427052816004
  y: 0.228494679183
  z: 8.95757300854
linear_acceleration_covariance: [0.0, 0.0, 0.0, 0.0, 0.0, 0.0, 0.0, 0.0, 0.0]
---
header: 
  seq: 17819
  stamp: 
    secs: 1668162631
    nsecs: 160672552
  frame_id: "imu_link"
orientation: 
  x: -3.14031203743e-05
  y: -0.00616355892271
  z: 0.909855484962
  w: 0.414879560471
orientation_covariance: [0.0, 0.0, 0.0, 0.0, 0.0, 0.0, 0.0, 0.0, 0.0]
angular_velocity: 
  x: 0.0190103734855
  y: -0.0252314960878
  z: 0.0384634641488
angular_velocity_covariance: [0.0, 0.0, 0.0, 0.0, 0.0, 0.0, 0.0, 0.0, 0.0]
linear_acceleration: 
  x: -0.427052816004
  y: 0.228494679183
  z: 8.95757300854
linear_acceleration_covariance: [0.0, 0.0, 0.0, 0.0, 0.0, 0.0, 0.0, 0.0, 0.0]
---
header: 
  seq: 17820
  stamp: 
    secs: 1668162631
    nsecs: 164640904
  frame_id: "imu_link"
orientation: 
  x: 4.62336138298e-05
  y: -0.00608469545841
  z: 0.909929931164
  w: 0.414717465639
orientation_covariance: [0.0, 0.0, 0.0, 0.0, 0.0, 0.0, 0.0, 0.0, 0.0]
angular_velocity: 
  x: -0.00614432526586
  y: -0.00847486708212
  z: 0.0341480598162
angular_velocity_covariance: [0.0, 0.0, 0.0, 0.0, 0.0, 0.0, 0.0, 0.0, 0.0]
linear_acceleration: 
  x: -0.0072409203276
  y: -0.636739821732
  z: 12.1229211569
linear_acceleration_covariance: [0.0, 0.0, 0.0, 0.0, 0.0, 0.0, 0.0, 0.0, 0.0]
---
header: 
  seq: 17821
  stamp: 
    secs: 1668162631
    nsecs: 170675080
  frame_id: "imu_link"
orientation: 
  x: 4.62336138298e-05
  y: -0.00608469545841
  z: 0.909929931164
  w: 0.414717465639
orientation_covariance: [0.0, 0.0, 0.0, 0.0, 0.0, 0.0, 0.0, 0.0, 0.0]
angular_velocity: 
  x: -0.00614432526586
  y: -0.00847486708212
  z: 0.0341480598162
angular_velocity_covariance: [0.0, 0.0, 0.0, 0.0, 0.0, 0.0, 0.0, 0.0, 0.0]
linear_acceleration: 
  x: -0.0072409203276
  y: -0.636739821732
  z: 12.1229211569
linear_acceleration_covariance: [0.0, 0.0, 0.0, 0.0, 0.0, 0.0, 0.0, 0.0, 0.0]
---
header: 
  seq: 17822
  stamp: 
    secs: 1668162631
    nsecs: 174663720
  frame_id: "imu_link"
orientation: 
  x: 0.000172655985807
  y: -0.00609421962872
  z: 0.909988224506
  w: 0.414589285851
orientation_covariance: [0.0, 0.0, 0.0, 0.0, 0.0, 0.0, 0.0, 0.0, 0.0]
angular_velocity: 
  x: 0.0653488704198
  y: -0.0124868052927
  z: 0.0231640261754
angular_velocity_covariance: [0.0, 0.0, 0.0, 0.0, 0.0, 0.0, 0.0, 0.0, 0.0]
linear_acceleration: 
  x: 0.494169969857
  y: 0.112635417841
  z: 7.20865914822
linear_acceleration_covariance: [0.0, 0.0, 0.0, 0.0, 0.0, 0.0, 0.0, 0.0, 0.0]
---
header: 
  seq: 17823
  stamp: 
    secs: 1668162631
    nsecs: 180653928
  frame_id: "imu_link"
orientation: 
  x: 0.000172655985807
  y: -0.00609421962872
  z: 0.909988224506
  w: 0.414589285851
orientation_covariance: [0.0, 0.0, 0.0, 0.0, 0.0, 0.0, 0.0, 0.0, 0.0]
angular_velocity: 
  x: 0.0653488704198
  y: -0.0124868052927
  z: 0.0231640261754
angular_velocity_covariance: [0.0, 0.0, 0.0, 0.0, 0.0, 0.0, 0.0, 0.0, 0.0]
linear_acceleration: 
  x: 0.494169969857
  y: 0.112635417841
  z: 7.20865914822
linear_acceleration_covariance: [0.0, 0.0, 0.0, 0.0, 0.0, 0.0, 0.0, 0.0, 0.0]
---
header: 
  seq: 17824
  stamp: 
    secs: 1668162631
    nsecs: 184666664
  frame_id: "imu_link"
orientation: 
  x: 0.000207842662348
  y: -0.00612163450569
  z: 0.910032272339
  w: 0.414492338896
orientation_covariance: [0.0, 0.0, 0.0, 0.0, 0.0, 0.0, 0.0, 0.0, 0.0]
angular_velocity: 
  x: -0.0593826414253
  y: -0.00421761536019
  z: 0.0197758740632
angular_velocity_covariance: [0.0, 0.0, 0.0, 0.0, 0.0, 0.0, 0.0, 0.0, 0.0]
linear_acceleration: 
  x: 0.0415417017415
  y: 0.345359686017
  z: 9.96602599621
linear_acceleration_covariance: [0.0, 0.0, 0.0, 0.0, 0.0, 0.0, 0.0, 0.0, 0.0]
---
header: 
  seq: 17825
  stamp: 
    secs: 1668162631
    nsecs: 190651528
  frame_id: "imu_link"
orientation: 
  x: 0.000207842662348
  y: -0.00612163450569
  z: 0.910032272339
  w: 0.414492338896
orientation_covariance: [0.0, 0.0, 0.0, 0.0, 0.0, 0.0, 0.0, 0.0, 0.0]
angular_velocity: 
  x: -0.0593826414253
  y: -0.00421761536019
  z: 0.0197758740632
angular_velocity_covariance: [0.0, 0.0, 0.0, 0.0, 0.0, 0.0, 0.0, 0.0, 0.0]
linear_acceleration: 
  x: 0.0415417017415
  y: 0.345359686017
  z: 9.96602599621
linear_acceleration_covariance: [0.0, 0.0, 0.0, 0.0, 0.0, 0.0, 0.0, 0.0, 0.0]
---
header: 
  seq: 17826
  stamp: 
    secs: 1668162631
    nsecs: 194676200
  frame_id: "imu_link"
orientation: 
  x: 0.000270042393822
  y: -0.00602305587381
  z: 0.910076797009
  w: 0.414395719767
orientation_covariance: [0.0, 0.0, 0.0, 0.0, 0.0, 0.0, 0.0, 0.0, 0.0]
angular_velocity: 
  x: 0.0337641652005
  y: -0.00369755234933
  z: 0.0241531053361
angular_velocity_covariance: [0.0, 0.0, 0.0, 0.0, 0.0, 0.0, 0.0, 0.0, 0.0]
linear_acceleration: 
  x: -0.272315556556
  y: -0.539489311725
  z: 10.5336137533
linear_acceleration_covariance: [0.0, 0.0, 0.0, 0.0, 0.0, 0.0, 0.0, 0.0, 0.0]
---
header: 
  seq: 17827
  stamp: 
    secs: 1668162631
    nsecs: 200672808
  frame_id: "imu_link"
orientation: 
  x: 0.000270042393822
  y: -0.00602305587381
  z: 0.910076797009
  w: 0.414395719767
orientation_covariance: [0.0, 0.0, 0.0, 0.0, 0.0, 0.0, 0.0, 0.0, 0.0]
angular_velocity: 
  x: 0.0337641652005
  y: -0.00369755234933
  z: 0.0241531053361
angular_velocity_covariance: [0.0, 0.0, 0.0, 0.0, 0.0, 0.0, 0.0, 0.0, 0.0]
linear_acceleration: 
  x: -0.272315556556
  y: -0.539489311725
  z: 10.5336137533
linear_acceleration_covariance: [0.0, 0.0, 0.0, 0.0, 0.0, 0.0, 0.0, 0.0, 0.0]
---
header: 
  seq: 17828
  stamp: 
    secs: 1668162631
    nsecs: 204666568
  frame_id: "imu_link"
orientation: 
  x: 0.000304384680931
  y: -0.00599377742037
  z: 0.91012686491
  w: 0.414286285639
orientation_covariance: [0.0, 0.0, 0.0, 0.0, 0.0, 0.0, 0.0, 0.0, 0.0]
angular_velocity: 
  x: 0.0173986379892
  y: 0.0110874017269
